[
  {
    "name": "Andijon",
    "code": "AN",
    "location": { "type": "Point", "coordinates": [72.3442, 40.7821] }
  },
  {
    "name": "Fargʻona",
    "code": "FA",
    "location": { "type": "Point", "coordinates": [71.7876, 40.3895] }
  },
  {
    "name": "Namangan",
    "code": "NA",
    "location": { "type": "Point", "coordinates": [71.6726, 40.9983] }
  },
  {
    "name": "Toshkent",
    "code": "TO",
    "location": { "type": "Point", "coordinates": [69.2797, 41.3111] }
  },
  {
    "name": "Samarqand",
    "code": "SA",
    "location": { "type": "Point", "coordinates": [66.9597, 39.6542] }
  },
  {
    "name": "Buxoro",
    "code": "BU",
    "location": { "type": "Point", "coordinates": [64.4286, 39.7747] }
  },
  {
    "name": "Xorazm",
    "code": "XO",
    "location": { "type": "Point", "coordinates": [60.6333, 41.55] }
  },
  {
    "name": "Navoiy",
    "code": "NV",
    "location": { "type": "Point", "coordinates": [65.3792, 40.0844] }
  },
  {
    "name": "Qashqadaryo",
    "code": "QA",
    "location": { "type": "Point", "coordinates": [65.79, 38.86] }
  },
  {
    "name": "Surxondaryo",
    "code": "SU",
    "location": { "type": "Point", "coordinates": [67.2783, 37.2242] }
  },
  {
    "name": "Sirdaryo",
    "code": "SI",
    "location": { "type": "Point", "coordinates": [68.6617, 40.8447] }
  },
  {
    "name": "Jizzax",
    "code": "JI",
    "location": { "type": "Point", "coordinates": [67.8333, 40.1167] }
  },
  {
    "name": "Qoraqalpogʻiston Respublikasi",
    "code": "QR",
    "location": { "type": "Point", "coordinates": [59.6, 42.4667] }
  }
]